{"profiles":[{"id":"me","name":"Shirley","surname":"Good"},6,{"id":"2b431854-b563-4da2-b0d7-f6391227c98c","name":"Crawford","surname":"Rodgers"}],"experiences":[{"id":0,"name":"FURNAFIX","image":"http://placehold.it/32x32","logo":"http://placehold.it/32x32","fuel":22},{"id":1,"name":"OCEANICA","image":"http://placehold.it/32x32","logo":"http://placehold.it/32x32","fuel":16},{"id":2,"name":"POSHOME","image":"http://placehold.it/32x32","logo":"http://placehold.it/32x32","fuel":19},{"id":3,"name":"PROTODYNE","image":"http://placehold.it/32x32","logo":"http://placehold.it/32x32","fuel":15},{"id":4,"name":"DRAGBOT","image":"http://placehold.it/32x32","logo":"http://placehold.it/32x32","fuel":23},{"id":5,"name":"QUORDATE","image":"http://placehold.it/32x32","logo":"http://placehold.it/32x32","fuel":33},{"id":6,"name":"ORBIFLEX","image":"http://placehold.it/32x32","logo":"http://placehold.it/32x32","fuel":36},{"id":7,"name":"EMPIRICA","image":"http://placehold.it/32x32","logo":"http://placehold.it/32x32","fuel":28},{"id":8,"name":"TOURMANIA","image":"http://placehold.it/32x32","logo":"http://placehold.it/32x32","fuel":36},{"id":9,"name":"EXOSWITCH","image":"http://placehold.it/32x32","logo":"http://placehold.it/32x32","fuel":27}],"locations":[{"id":0,"locations":[{"id":0,"address":"253 Tudor Terrace, Vale, Nebraska, 4729","latitude":76.947056,"longitude":55.906215},{"id":1,"address":"427 Ivan Court, Balm, Florida, 1268","latitude":-49.50975,"longitude":-167.782467},{"id":2,"address":"419 Menahan Street, Wright, Puerto Rico, 9459","latitude":-44.507485,"longitude":144.061289}]},{"id":1,"locations":[{"id":0,"address":"903 Clymer Street, Alamo, Guam, 5694","latitude":2.303029,"longitude":17.692263},{"id":1,"address":"124 Berry Street, Elliston, Alaska, 4949","latitude":56.198925,"longitude":-172.917265},{"id":2,"address":"979 Kaufman Place, Cressey, Idaho, 5829","latitude":-47.580279,"longitude":-80.05154},{"id":3,"address":"375 Midwood Street, Williams, Washington, 4456","latitude":15.991365,"longitude":2.942378},{"id":4,"address":"984 Monroe Street, Bynum, New York, 5409","latitude":79.067885,"longitude":-157.723141}]},{"id":2,"locations":[{"id":0,"address":"698 Keap Street, Hegins, Arizona, 3788","latitude":-8.710195,"longitude":-170.315117},{"id":1,"address":"544 Knight Court, Bagtown, Rhode Island, 985","latitude":-47.818695,"longitude":68.262417},{"id":2,"address":"565 Bayard Street, Hayes, Illinois, 4996","latitude":-72.816121,"longitude":63.380933},{"id":3,"address":"384 Bancroft Place, Dellview, Palau, 8926","latitude":3.886417,"longitude":52.952246}]},{"id":3,"locations":[{"id":0,"address":"512 Waldorf Court, Albany, Michigan, 589","latitude":-82.252056,"longitude":-120.958479},{"id":1,"address":"949 Dakota Place, Virgie, Kansas, 279","latitude":-82.512089,"longitude":47.737771}]},{"id":4,"locations":[{"id":0,"address":"776 Vandervoort Place, Wolcott, Nevada, 2918","latitude":-79.89892,"longitude":119.755078},{"id":1,"address":"705 Gerritsen Avenue, Cumminsville, Hawaii, 4908","latitude":44.673209,"longitude":-92.713753},{"id":2,"address":"446 Tehama Street, Castleton, California, 2341","latitude":-35.762493,"longitude":76.565384}]},{"id":5,"locations":[{"id":0,"address":"435 Jerome Street, Vowinckel, Minnesota, 1105","latitude":-64.965713,"longitude":-34.101161},{"id":1,"address":"181 Montieth Street, Gerton, Connecticut, 4888","latitude":49.256315,"longitude":97.521363},{"id":2,"address":"189 Rutherford Place, Hannasville, Wisconsin, 6863","latitude":-66.258104,"longitude":-79.685393}]},{"id":6,"locations":[{"id":0,"address":"950 Cypress Court, Bladensburg, South Dakota, 9120","latitude":-80.538518,"longitude":-24.967491},{"id":1,"address":"425 Tennis Court, Wedgewood, West Virginia, 927","latitude":3.135026,"longitude":-9.813113},{"id":2,"address":"435 Adler Place, Blandburg, Marshall Islands, 4595","latitude":-81.40502,"longitude":138.754647},{"id":3,"address":"509 Lloyd Court, Waterford, South Carolina, 2037","latitude":84.673128,"longitude":174.736185}]},{"id":7,"locations":[{"id":0,"address":"501 Furman Avenue, Ticonderoga, Virgin Islands, 8363","latitude":1.76451,"longitude":-74.50112}]},{"id":8,"locations":[{"id":0,"address":"276 Lott Street, Chapin, Maine, 7538","latitude":63.620306,"longitude":-156.023325},{"id":1,"address":"847 Milford Street, Dowling, Pennsylvania, 9245","latitude":-84.297085,"longitude":140.18778},{"id":2,"address":"652 Gotham Avenue, Williston, American Samoa, 6515","latitude":13.539891,"longitude":159.687558},{"id":3,"address":"467 Interborough Parkway, Florence, Louisiana, 5087","latitude":6.343561,"longitude":-179.753709}]},{"id":9,"locations":[{"id":0,"address":"773 Bridgewater Street, Bendon, Utah, 7050","latitude":83.402474,"longitude":-6.062254}]}]}
